[
    {
      "id": 1,
      "agencia": "Las Flores",
      "distrito": "San Juan De Lurigancho",
      "provincia": "Lima",
      "departamento": "Lima",
      "direccion": "Las Flores de Primavera 1487",
      "lon": -77.01232817,
      "lat": -12.0046896
    },
    {
      "id": 2,
      "agencia": "Punchana",
      "distrito": "Punchana",
      "provincia": "Maynas",
      "departamento": "Loreto",
      "direccion": "Av. La Marina N° 944",
      "lon": -73.240647,
      "lat": -3.731367
    },
    {
      "id": 3,
      "agencia": "Conquistadores",
      "distrito": "San Isidro",
      "provincia": "Lima",
      "departamento": "Lima",
      "direccion": "Av. Conquistadores 968",
      "lon": -77.03735314,
      "lat": -12.10568371
    },
    {
      "id": 4,
      "agencia": "Salvador Allende",
      "distrito": "Villa Maria del Triunfo",
      "provincia": "Lima",
      "departamento": "Lima",
      "direccion": "Av. Salvador Allende 468 – Villa María del Triunfo",
      "lon": -76.957646,
      "lat": -12.158153
    },
    {
      "id": 5,
      "agencia": "Siglo XX (030)",
      "distrito": "Arequipa",
      "provincia": "Arequipa",
      "departamento": "Arequipa",
      "direccion": "Av. Siglo XX N°122 Cercado de Arequipa",
      "lon": -71.530671,
      "lat": -16.399615
    },
    {
      "id": 6,
      "agencia": "Constructores",
      "distrito": "La Molina",
      "provincia": "Lima",
      "departamento": "Lima",
      "direccion": "Av Constructores Cuadra 1 Mz. D Lote 5",
      "lon": -76.957802,
      "lat": -12.067233
    },
    {
      "id": 7,
      "agencia": "Victor Larco",
      "distrito": "Trujillo",
      "provincia": "Trujillo",
      "departamento": "La Libertad",
      "direccion": "Av. Víctor Larco Herrera N° 1631 Urbanización Fátima",
      "lon": -79.042123,
      "lat": -8.128624
    },
    {
      "id": 8,

      "agencia": "Socabaya",
   
      "distrito": "Socabaya",
   
      "provincia": "Arequipa",
   
      "departamento": "Arequipa",
   
      "direccion": "Av. San Martín de Socabaya N° 307 Socabaya",
   
      "lon": -71.529979,
   
      "lat": -16.438285
   
    },
   
    {
      "id": 9,
      
      "agencia": "Colonial",
   
      "distrito": "Callao",
   
      "provincia": "Callao",
   
      "departamento": "Lima",
   
      "direccion": "Av. Oscar Benavides Mz. V Lotes 38 y 39",
   
      "lon": -77.094569,
   
      "lat": -12.05266
   
    },
   
    {
      "id": 10,
      
      "agencia": "El Porvenir",
   
      "distrito": "El Porvenir",
   
      "provincia": "Trujillo",
   
      "departamento": "La Libertad",
   
      "direccion": "Jr. Micaela Bastidas N° 1201 ",
   
      "lon": -79.00303884,
   
      "lat": -8.08513996
   
    },
   
    {
      "id": 11,
      
      "agencia": "Faber Castell",
   
      "distrito": "Ate",
   
      "provincia": "Lima",
   
      "departamento": "Lima",
   
      "direccion": "Av. La Molina N. 161",
   
      "lon": -76.963932,
   
      "lat": -12.055857
   
    },
   
    {
      "id": 12,
      
      "agencia": "Real Plaza Salaverry",
   
      "distrito": "Jesús María",
   
      "provincia": "Lima",
   
      "departamento": "Lima",
   
      "direccion": "Av. Salaverry Cdra. 23 y 24",
   
      "lon": -77.051717,
   
      "lat": -12.089713
   
    },
   
    {
      "id": 13,
      
      "agencia": "Tottus Sullana",
   
      "distrito": "Sullana",
   
      "provincia": "Sullana",
   
      "departamento": "Piura",
   
      "direccion": "Av. Panamericana N°461 Urbanización Santa Rosa",
   
      "lon": -80.697197,
   
      "lat": -4.903301
   
    },
   
    {
      "id": 14,
      
      "agencia": "Open Plaza Pucallpa",
   
      "distrito": "Calleria",
   
      "provincia": "Coronel Portillo",
   
      "departamento": "Ucayali",
   
      "direccion": "Av. Centenario – Av. Juan Vargas",
   
      "lon": -74.566592,
   
      "lat": -8.387681
   
    },
   
    {
      "id": 15,
      
      "agencia": "Yanahuara",
   
      "distrito": "Yanahuara",
   
      "provincia": "Arequipa",
   
      "departamento": "Arequipa",
   
      "direccion": "Av. Ejército  / Urb. Jardín Mz. A Lt. 03",
   
      "lon": -71.542328,
   
      "lat": -16.391764
   
    },
   
    {
      "id": 16,
      
      "agencia": "De la Fuente",
   
      "distrito": "Miraflores",
   
      "provincia": "Lima",
   
      "departamento": "Lima",
   
      "direccion": "Av. 28 de Julio 1121",
   
      "lon": -77.02138969,
   
      "lat": -12.13000805
   
    },
   
    {
      "id": 17,
      
      "agencia": "Naylamp",
   
      "distrito": "San Juan de Lurigancho",
   
      "provincia": "Lima",
   
      "departamento": "Lima",
   
      "direccion": "Av. Gran Chimú 568",
   
      "lon": -77.00450896,
   
      "lat": -12.0268364
   
    },
   
    {
      "id": 18,
      
      "agencia": "Próceres",
   
      "distrito": "San Juan De Lurigancho",
   
      "provincia": "Lima",
   
      "departamento": "Lima",
   
      "direccion": "Av. Proceres de la Independencia N° 2062 - SJL",
   
      "lon": -77.009044,
   
      "lat": -11.998248
   
    },
   
    {
      "id": 19,
      
      "agencia": "Real Plaza Cajamarca",
   
      "distrito": "Cajamarca",
   
      "provincia": "Cajamarca",
   
      "departamento": "Cajamarca",
   
      "direccion": " Av. vía de Evitamiento Norte",
   
      "lon": -78.506083,
   
      "lat": -7.154024
   
    },
   
    {
      "id": 20,
      "agencia": "Hersil",
      "distrito": "Ate",
      "provincia": "Lima",
      "departamento": "Lima",
      "direccion": "Av. Los Frutales 220",
      "lon": -76.96720247,
      "lat": -12.05953566
    },
    {
      "id": 21,
      "agencia": "Owens Illinois",
      "distrito": "Lurín",
      "provincia": "Lima",
      "departamento": "Lima",
      "direccion": "S/N Pampas De Mamay Lote A-2-3",
      "lon": -76.831697,
      "lat": -12.297813
    },
    {
      "id": 22,
      "agencia": "Enotria",
      "distrito": "Ate",
      "provincia": "Lima",
      "departamento": "Lima",
      "direccion": "Av. Nicolas Ayllon 2890",
      "lon": -76.972601,
      "lat": -12.058336
    },
    {
      "id": 23,
      "agencia": "Real Plaza Cusco",
      "distrito": "Cusco",
      "provincia": "Cusco",
      "departamento": "Cusco",
      "direccion": "Av. De la Cultura Lt. A-2",
      "lon": -71.950088,
      "lat": -13.523304
    },
    {
      "id": 24,
      
      "agencia": "Bagua",
   
      "distrito": "Bagua Chica",
   
      "provincia": "Bagua",
   
      "departamento": "Amazonas",
   
      "direccion": "Jr. Comercio  N°  532 (C-5 Mz 220 Lote 31)",
   
      "lon": -78.53162,
   
      "lat": -5.639817
   
    }
   ]